{
"type": "FeatureCollection",
"name": "castles3",
"crs": { "type": "name", "properties": { "name": "urn:ogc:def:crs:OGC:1.3:CRS84" } },
"features": [
{ "type": "Feature", "properties": { "full_id": "n56144812", "osm_id": "56144812", "osm_type": "node", "historic": "castle", "castle_typ": null, "descriptio": null, "building_c": null, "old_name": null, "alt_name": null, "ruins": null, "wikipedia": "de:Festung Kufstein", "wikidata": "Q700709", "wheelchair": "no", "website": null, "name": "Festung Kufstein", "castle_t_2": "fortress", "century": 13 }, "geometry": { "type": "Point", "coordinates": [ 12.1691516, 47.581846 ] } },
{ "type": "Feature", "properties": { "full_id": "n245873236", "osm_id": "245873236", "osm_type": "node", "historic": "castle", "castle_typ": null, "descriptio": null, "building_c": null, "old_name": "Arnulfsfeste", "alt_name": "Hetzelburg", "ruins": "yes", "wikipedia": "de:Arnulfsfeste", "wikidata": "Q697817", "wheelchair": null, "website": null, "name": "Arnulfsfeste", "castle_t_2": "defensive", "century": 9 }, "geometry": { "type": "Point", "coordinates": [ 14.1583006, 46.6602811 ] } },
{ "type": "Feature", "properties": { "full_id": "n245919294", "osm_id": "245919294", "osm_type": "node", "historic": "castle", "castle_typ": null, "descriptio": "nur mehr sehr geringe Reste erkennbar", "building_c": "recognizable_remains", "old_name": null, "alt_name": null, "ruins": "yes", "wikipedia": "de:Burg Greifenfels", "wikidata": "Q1012032", "wheelchair": null, "website": null, "name": "Burgruine Greifenfels", "castle_t_2": "defensive", "century": 13 }, "geometry": { "type": "Point", "coordinates": [ 14.3721057, 46.5984629 ] } },
{ "type": "Feature", "properties": { "full_id": "n259614376", "osm_id": "259614376", "osm_type": "node", "historic": "castle", "castle_typ": null, "descriptio": null, "building_c": null, "old_name": null, "alt_name": null, "ruins": "yes", "wikipedia": "de:Burg Wolkenstein (Steiermark)", "wikidata": "Q1014662", "wheelchair": null, "website": "https://www.schladming-dachstein.at/de/Service/Infos-von-A-Z/Burgruine-Wolkenstein_az_340897", "name": "Burgruine Wolkenstein", "castle_t_2": "defensive", "century": 9 }, "geometry": { "type": "Point", "coordinates": [ 14.1508281, 47.5563876 ] } },
{ "type": "Feature", "properties": { "full_id": "n289535313", "osm_id": "289535313", "osm_type": "node", "historic": "castle", "castle_typ": null, "descriptio": null, "building_c": "reconstructed", "old_name": null, "alt_name": null, "ruins": null, "wikipedia": "de:Burgruine Dürnstein (Steiermark)", "wikidata": "Q1015270", "wheelchair": null, "website": "http://www.burgen-austria.com/Archiv.asp?Artikel=Drnstein%20(Stmk)", "name": "Burg Dürnstein", "castle_t_2": "defensive", "century": 12 }, "geometry": { "type": "Point", "coordinates": [ 14.3920629, 46.9898542 ] } },
{ "type": "Feature", "properties": { "full_id": "n309865881", "osm_id": "309865881", "osm_type": "node", "historic": "castle", "castle_typ": null, "descriptio": null, "building_c": null, "old_name": null, "alt_name": null, "ruins": "yes", "wikipedia": "de:Burgruine Hals", "wikidata": "Q1015317", "wheelchair": null, "website": null, "name": "Burgruine Hals", "castle_t_2": "defensive", "century": 11 }, "geometry": { "type": "Point", "coordinates": [ 13.4622074, 48.591123 ] } },
{ "type": "Feature", "properties": { "full_id": "n312593240", "osm_id": "312593240", "osm_type": "node", "historic": "castle", "castle_typ": null, "descriptio": null, "building_c": null, "old_name": null, "alt_name": null, "ruins": null, "wikipedia": "de:Burg Prunn", "wikidata": "Q1013521", "wheelchair": "no", "website": "https://www.burg-prunn.de/", "name": "Burg Prunn", "castle_t_2": "defensive", "century": 11 }, "geometry": { "type": "Point", "coordinates": [ 11.7398785, 48.9504566 ] } },
{ "type": "Feature", "properties": { "full_id": "n367671661", "osm_id": "367671661", "osm_type": "node", "historic": "castle", "castle_typ": null, "descriptio": null, "building_c": null, "old_name": null, "alt_name": null, "ruins": "yes", "wikipedia": "de:Burgruine Rottenburg", "wikidata": "Q14549685", "wheelchair": null, "website": null, "name": "Burgruine Rottenburg", "castle_t_2": "defensive", "century": 12 }, "geometry": { "type": "Point", "coordinates": [ 11.7978556, 47.3839788 ] } },
{ "type": "Feature", "properties": { "full_id": "n370355486", "osm_id": "370355486", "osm_type": "node", "historic": "castle", "castle_typ": null, "descriptio": null, "building_c": null, "old_name": null, "alt_name": "Alte Burg", "ruins": null, "wikipedia": "de:Burgstall Lenting", "wikidata": "Q98332118", "wheelchair": null, "website": null, "name": "Burgstall Lenting", "castle_t_2": "defensive", "century": 0 }, "geometry": { "type": "Point", "coordinates": [ 11.4590894, 48.8084662 ] } },
{ "type": "Feature", "properties": { "full_id": "n372032064", "osm_id": "372032064", "osm_type": "node", "historic": "castle", "castle_typ": null, "descriptio": null, "building_c": null, "old_name": null, "alt_name": null, "ruins": null, "wikipedia": "de:Burg Mitterfels", "wikidata": "Q18581549", "wheelchair": null, "website": null, "name": "Burg Mitterfels", "castle_t_2": "defensive", "century": 11 }, "geometry": { "type": "Point", "coordinates": [ 12.68009, 48.9688922 ] } },
{ "type": "Feature", "properties": { "full_id": "n373451177", "osm_id": "373451177", "osm_type": "node", "historic": "castle", "castle_typ": null, "descriptio": "Grundmauern einer Burg aus staufischer Zeit", "building_c": null, "old_name": null, "alt_name": null, "ruins": "yes", "wikipedia": "de:Ratzlburg", "wikidata": "Q1516977", "wheelchair": null, "website": null, "name": "Ratzlburg", "castle_t_2": "defensive", "century": 12 }, "geometry": { "type": "Point", "coordinates": [ 12.95411, 48.2054211 ] } },
{ "type": "Feature", "properties": { "full_id": "n373455527", "osm_id": "373455527", "osm_type": "node", "historic": "castle", "castle_typ": null, "descriptio": "Burgstall, Unterirdische Gänge der ehemaligen Burg Julbach", "building_c": null, "old_name": null, "alt_name": null, "ruins": "yes", "wikipedia": "de:Burg Julbach", "wikidata": "Q17521775", "wheelchair": null, "website": null, "name": "Burgstall Schloßberg", "castle_t_2": "defensive", "century": 0 }, "geometry": { "type": "Point", "coordinates": [ 12.9589231, 48.2603745 ] } },
{ "type": "Feature", "properties": { "full_id": "n393226151", "osm_id": "393226151", "osm_type": "node", "historic": "castle", "castle_typ": null, "descriptio": null, "building_c": null, "old_name": null, "alt_name": null, "ruins": "yes", "wikipedia": "de:Burgruine Tachenstein", "wikidata": "Q1015547", "wheelchair": "no", "website": null, "name": "Burgruine Tachenstein", "castle_t_2": null, "century": 12 }, "geometry": { "type": "Point", "coordinates": [ 11.6802129, 48.9634091 ] } },
{ "type": "Feature", "properties": { "full_id": "n393227200", "osm_id": "393227200", "osm_type": "node", "historic": "castle", "castle_typ": null, "descriptio": null, "building_c": null, "old_name": null, "alt_name": null, "ruins": "yes", "wikipedia": "de:Burgruine Rabenstein (Niederbayern)", "wikidata": "Q1015461", "wheelchair": null, "website": null, "name": "Ruine Rabenstein", "castle_t_2": "defensive", "century": 12 }, "geometry": { "type": "Point", "coordinates": [ 11.6822098, 48.9606218 ] } },
{ "type": "Feature", "properties": { "full_id": "n417649789", "osm_id": "417649789", "osm_type": "node", "historic": "castle", "castle_typ": null, "descriptio": null, "building_c": null, "old_name": null, "alt_name": null, "ruins": "yes", "wikipedia": "de:Burgruine Vellenberg", "wikidata": "Q1015557", "wheelchair": null, "website": null, "name": "Burgruine Vellenberg", "castle_t_2": "defensive", "century": 12 }, "geometry": { "type": "Point", "coordinates": [ 11.3127984, 47.242231 ] } },
{ "type": "Feature", "properties": { "full_id": "n461975630", "osm_id": "461975630", "osm_type": "node", "historic": "castle", "castle_typ": "hrad", "descriptio": null, "building_c": null, "old_name": null, "alt_name": null, "ruins": null, "wikipedia": "cs:Nové Hrady (hrad)", "wikidata": "Q1013354", "wheelchair": null, "website": "https://www.hrad-novehrady.eu/", "name": "Hrad Nové Hrady", "castle_t_2": "defensive", "century": 13 }, "geometry": { "type": "Point", "coordinates": [ 14.7747144, 48.7893761 ] } },
{ "type": "Feature", "properties": { "full_id": "n473147174", "osm_id": "473147174", "osm_type": "node", "historic": "castle", "castle_typ": null, "descriptio": null, "building_c": null, "old_name": null, "alt_name": "Burgruine Landskron", "ruins": null, "wikipedia": "de:Burg Landskron (Kärnten)", "wikidata": "Q700639", "wheelchair": "yes", "website": null, "name": "Burg Landskron", "castle_t_2": "defensive", "century": 14 }, "geometry": { "type": "Point", "coordinates": [ 13.8964866, 46.642459 ] } },
{ "type": "Feature", "properties": { "full_id": "n601581547", "osm_id": "601581547", "osm_type": "node", "historic": "castle", "castle_typ": null, "descriptio": null, "building_c": null, "old_name": null, "alt_name": null, "ruins": "yes", "wikipedia": "de:Burgruine Hohenburg (Pusarnitz)", "wikidata": "Q1015350", "wheelchair": null, "website": null, "name": "Burgruine Hohenburg", "castle_t_2": "defensive", "century": 12 }, "geometry": { "type": "Point", "coordinates": [ 13.4077519, 46.8527492 ] } },
{ "type": "Feature", "properties": { "full_id": "n602996723", "osm_id": "602996723", "osm_type": "node", "historic": "castle", "castle_typ": null, "descriptio": null, "building_c": null, "old_name": null, "alt_name": null, "ruins": "yes", "wikipedia": "de:Burg Hohenwaldeck", "wikidata": "Q1012452", "wheelchair": "no", "website": null, "name": "Burgruine Hohenwaldeck", "castle_t_2": "defensive", "century": 13 }, "geometry": { "type": "Point", "coordinates": [ 11.8765615, 47.7154231 ] } },
{ "type": "Feature", "properties": { "full_id": "n604970003", "osm_id": "604970003", "osm_type": "node", "historic": "castle", "castle_typ": null, "descriptio": "Burgstall einer Burg der Falkensteiner. Einige, niedrige Mauerreste noch sichtbar.", "building_c": null, "old_name": null, "alt_name": "Alt-Falkenstein", "ruins": "yes", "wikipedia": null, "wikidata": "Q1013364", "wheelchair": null, "website": null, "name": "Rachelburg", "castle_t_2": "defensive", "century": 12 }, "geometry": { "type": "Point", "coordinates": [ 12.1247954, 47.7159342 ] } },
{ "type": "Feature", "properties": { "full_id": "n612458212", "osm_id": "612458212", "osm_type": "node", "historic": "castle", "castle_typ": null, "descriptio": null, "building_c": null, "old_name": null, "alt_name": null, "ruins": "yes", "wikipedia": "de:Auerburg", "wikidata": "Q759250", "wheelchair": null, "website": null, "name": "Burgruine Auerburg", "castle_t_2": "defensive", "century": 11 }, "geometry": { "type": "Point", "coordinates": [ 12.1777736, 47.6430421 ] } },
{ "type": "Feature", "properties": { "full_id": "n613443006", "osm_id": "613443006", "osm_type": "node", "historic": "castle", "castle_typ": null, "descriptio": null, "building_c": null, "old_name": null, "alt_name": null, "ruins": "yes", "wikipedia": "de:Ruine Thierberg", "wikidata": "Q2175451", "wheelchair": null, "website": null, "name": "Burgruine Thierberg", "castle_t_2": "defensive", "century": 13 }, "geometry": { "type": "Point", "coordinates": [ 12.1645152, 47.6000337 ] } },
{ "type": "Feature", "properties": { "full_id": "n623082884", "osm_id": "623082884", "osm_type": "node", "historic": "castle", "castle_typ": null, "descriptio": null, "building_c": null, "old_name": null, "alt_name": null, "ruins": null, "wikipedia": null, "wikidata": "Q15108337", "wheelchair": null, "website": null, "name": "Burg Kaltenstein", "castle_t_2": "defensive", "century": 14 }, "geometry": { "type": "Point", "coordinates": [ 13.5338789, 48.7319553 ] } },
{ "type": "Feature", "properties": { "full_id": "n701171308", "osm_id": "701171308", "osm_type": "node", "historic": "castle", "castle_typ": null, "descriptio": null, "building_c": null, "old_name": null, "alt_name": null, "ruins": "yes", "wikipedia": null, "wikidata": "Q98716221", "wheelchair": null, "website": null, "name": "Ruine Schintelburg", "castle_t_2": "defensive", "century": 13 }, "geometry": { "type": "Point", "coordinates": [ 11.9264316, 47.481639 ] } },
{ "type": "Feature", "properties": { "full_id": "n724015450", "osm_id": "724015450", "osm_type": "node", "historic": null, "castle_typ": null, "descriptio": null, "building_c": null, "old_name": null, "alt_name": null, "ruins": null, "wikipedia": null, "wikidata": null, "wheelchair": null, "website": null, "name": "\nFestung Hohensalzburg\n", "castle_t_2": null, "century": 11 }, "geometry": { "type": "Point", "coordinates": [ 13.047751624182256, 47.795012894981433 ] } },
{ "type": "Feature", "properties": { "full_id": "n764412487", "osm_id": "764412487", "osm_type": "node", "historic": "castle", "castle_typ": null, "descriptio": null, "building_c": null, "old_name": null, "alt_name": null, "ruins": null, "wikipedia": "de:Burg Wasserburg", "wikidata": "Q1014496", "wheelchair": null, "website": null, "name": "Wasserburg", "castle_t_2": "defensive", "century": 12 }, "geometry": { "type": "Point", "coordinates": [ 12.2293626, 48.0607135 ] } },
{ "type": "Feature", "properties": { "full_id": "n778520364", "osm_id": "778520364", "osm_type": "node", "historic": "castle", "castle_typ": null, "descriptio": null, "building_c": null, "old_name": null, "alt_name": null, "ruins": "yes", "wikipedia": "de:Burg Brunneck", "wikidata": "Q1011204", "wheelchair": null, "website": null, "name": "Burgruine Brunneck", "castle_t_2": null, "century": 14 }, "geometry": { "type": "Point", "coordinates": [ 11.2741541, 48.9865179 ] } },
{ "type": "Feature", "properties": { "full_id": "n799533694", "osm_id": "799533694", "osm_type": "node", "historic": "castle", "castle_typ": null, "descriptio": null, "building_c": null, "old_name": null, "alt_name": null, "ruins": "yes", "wikipedia": "de:Festung Pass Strub", "wikidata": "Q1408953", "wheelchair": null, "website": null, "name": "Festung Pass Strub", "castle_t_2": null, "century": 13 }, "geometry": { "type": "Point", "coordinates": [ 12.6708397, 47.5785487 ] } },
{ "type": "Feature", "properties": { "full_id": "n837628857", "osm_id": "837628857", "osm_type": "node", "historic": "castle", "castle_typ": null, "descriptio": null, "building_c": null, "old_name": null, "alt_name": null, "ruins": "yes", "wikipedia": "de:Burgruine Feldsberg", "wikidata": "Q1015285", "wheelchair": null, "website": null, "name": "Burgruine Feldsberg", "castle_t_2": "defensive", "century": 12 }, "geometry": { "type": "Point", "coordinates": [ 13.3950274, 46.8411102 ] } },
{ "type": "Feature", "properties": { "full_id": "n860982413", "osm_id": "860982413", "osm_type": "node", "historic": "castle", "castle_typ": null, "descriptio": null, "building_c": "completely_ruinous", "old_name": null, "alt_name": null, "ruins": "yes", "wikipedia": "de:Burgruine Gurnitz", "wikidata": "Q1015312", "wheelchair": null, "website": null, "name": "Burgruine Gurnitz", "castle_t_2": "defensive", "century": 11 }, "geometry": { "type": "Point", "coordinates": [ 14.3914748, 46.602037 ] } },
{ "type": "Feature", "properties": { "full_id": "n864781377", "osm_id": "864781377", "osm_type": "node", "historic": null, "castle_typ": null, "descriptio": null, "building_c": null, "old_name": null, "alt_name": null, "ruins": null, "wikipedia": null, "wikidata": null, "wheelchair": null, "website": null, "name": "Burg Dívčí Kámen", "castle_t_2": null, "century": 14 }, "geometry": { "type": "Point", "coordinates": [ 14.3571676, 48.8889661 ] } },
{ "type": "Feature", "properties": { "full_id": "n1023040063", "osm_id": "1023040063", "osm_type": "node", "historic": "castle", "castle_typ": null, "descriptio": null, "building_c": null, "old_name": null, "alt_name": null, "ruins": "yes", "wikipedia": null, "wikidata": null, "wheelchair": null, "website": null, "name": "Schlossruine Kling", "castle_t_2": "stately", "century": 0 }, "geometry": { "type": "Point", "coordinates": [ 12.3300709, 48.0717641 ] } },
{ "type": "Feature", "properties": { "full_id": "n1198240199", "osm_id": "1198240199", "osm_type": "node", "historic": "castle", "castle_typ": null, "descriptio": null, "building_c": null, "old_name": null, "alt_name": null, "ruins": null, "wikipedia": "de:Burgruine Dornach", "wikidata": "Q1015269", "wheelchair": null, "website": null, "name": "Burgruine Dornach", "castle_t_2": "defensive", "century": 15 }, "geometry": { "type": "Point", "coordinates": [ 14.525177, 48.4658721 ] } },
{ "type": "Feature", "properties": { "full_id": "n1231202970", "osm_id": "1231202970", "osm_type": "node", "historic": "castle", "castle_typ": null, "descriptio": null, "building_c": null, "old_name": null, "alt_name": "Burgruine Pflindsberg", "ruins": "yes", "wikipedia": "de:Burg Pflindsberg", "wikidata": "Q1013484", "wheelchair": null, "website": null, "name": "Ruine Pflindsberg", "castle_t_2": "defensive", "century": 13 }, "geometry": { "type": "Point", "coordinates": [ 13.7420676, 47.6374782 ] } },
{ "type": "Feature", "properties": { "full_id": "n1388674422", "osm_id": "1388674422", "osm_type": "node", "historic": null, "castle_typ": null, "descriptio": null, "building_c": null, "old_name": null, "alt_name": null, "ruins": null, "wikipedia": null, "wikidata": null, "wheelchair": null, "website": null, "name": "Burg Finstergrün ", "castle_t_2": null, "century": 12 }, "geometry": { "type": "Point", "coordinates": [ 13.842968807958481, 47.073916567595163 ] } },
{ "type": "Feature", "properties": { "full_id": "n1397560131", "osm_id": "1397560131", "osm_type": "node", "historic": "castle", "castle_typ": null, "descriptio": null, "building_c": null, "old_name": null, "alt_name": "Burgruine Sternberg", "ruins": null, "wikipedia": null, "wikidata": "Q37969619", "wheelchair": null, "website": null, "name": "Sternberger Burg", "castle_t_2": "defensive", "century": 12 }, "geometry": { "type": "Point", "coordinates": [ 13.9862467, 46.6269869 ] } },
{ "type": "Feature", "properties": { "full_id": "n1484611661", "osm_id": "1484611661", "osm_type": "node", "historic": null, "castle_typ": null, "descriptio": null, "building_c": null, "old_name": null, "alt_name": null, "ruins": null, "wikipedia": null, "wikidata": null, "wheelchair": null, "website": null, "name": "Burg Strechau", "castle_t_2": null, "century": 12 }, "geometry": { "type": "Point", "coordinates": [ 14.3154795, 47.5289086 ] } },
{ "type": "Feature", "properties": { "full_id": "n1496505708", "osm_id": "1496505708", "osm_type": "node", "historic": null, "castle_typ": null, "descriptio": null, "building_c": null, "old_name": null, "alt_name": null, "ruins": null, "wikipedia": null, "wikidata": null, "wheelchair": null, "website": null, "name": "Burg Cuknštejn", "castle_t_2": null, "century": 15 }, "geometry": { "type": "Point", "coordinates": [ 14.750846974437721, 48.775343393688509 ] } },
{ "type": "Feature", "properties": { "full_id": "n1548603665", "osm_id": "1548603665", "osm_type": "node", "historic": "castle", "castle_typ": null, "descriptio": null, "building_c": null, "old_name": null, "alt_name": null, "ruins": "yes", "wikipedia": "de:Burgruine Hieburg", "wikidata": "Q1015342", "wheelchair": null, "website": null, "name": "Burgruine Hieburg", "castle_t_2": "defensive", "century": 13 }, "geometry": { "type": "Point", "coordinates": [ 12.2444811, 47.2469638 ] } },
{ "type": "Feature", "properties": { "full_id": "n1580065755", "osm_id": "1580065755", "osm_type": "node", "historic": "castle", "castle_typ": null, "descriptio": null, "building_c": null, "old_name": null, "alt_name": "Burg Haunsberg", "ruins": "yes", "wikipedia": "de:Burg Haunsperg", "wikidata": "Q1012224", "wheelchair": "no", "website": null, "name": "Burgruine Haunsperg", "castle_t_2": "defensive", "century": 12 }, "geometry": { "type": "Point", "coordinates": [ 12.9897566, 47.931286 ] } },
{ "type": "Feature", "properties": { "full_id": "n1602641101", "osm_id": "1602641101", "osm_type": "node", "historic": "castle", "castle_typ": null, "descriptio": null, "building_c": null, "old_name": null, "alt_name": "Burgruine Altrosegg", "ruins": "yes", "wikipedia": "de:Burgruine Rosegg", "wikidata": "Q1015487", "wheelchair": null, "website": null, "name": "Burgruine Rosegg", "castle_t_2": "defensive", "century": 14 }, "geometry": { "type": "Point", "coordinates": [ 14.0248, 46.5842619 ] } },
{ "type": "Feature", "properties": { "full_id": "n1665370632", "osm_id": "1665370632", "osm_type": "node", "historic": "castle", "castle_typ": null, "descriptio": null, "building_c": null, "old_name": null, "alt_name": null, "ruins": null, "wikipedia": "de:Burgruine Bachsfall", "wikidata": "Q15790326", "wheelchair": null, "website": null, "name": "Burgruine Bachsfall", "castle_t_2": "defensive", "century": 12 }, "geometry": { "type": "Point", "coordinates": [ 13.2061336, 47.4105867 ] } },
{ "type": "Feature", "properties": { "full_id": "n1682183218", "osm_id": "1682183218", "osm_type": "node", "historic": "castle", "castle_typ": null, "descriptio": null, "building_c": null, "old_name": null, "alt_name": null, "ruins": null, "wikipedia": "de:Burg Saldenburg", "wikidata": "Q1013803", "wheelchair": null, "website": null, "name": "Saldenburg", "castle_t_2": "defensive", "century": 14 }, "geometry": { "type": "Point", "coordinates": [ 13.3548417, 48.7742366 ] } },
{ "type": "Feature", "properties": { "full_id": "n1732251136", "osm_id": "1732251136", "osm_type": "node", "historic": null, "castle_typ": null, "descriptio": null, "building_c": null, "old_name": null, "alt_name": null, "ruins": null, "wikipedia": null, "wikidata": null, "wheelchair": null, "website": null, "name": null, "castle_t_2": null, "century": 14 }, "geometry": { "type": "Point", "coordinates": [ 14.281851744204166, 46.754587364238901 ] } },
{ "type": "Feature", "properties": { "full_id": "n1739412117", "osm_id": "1739412117", "osm_type": "node", "historic": "castle", "castle_typ": null, "descriptio": null, "building_c": null, "old_name": null, "alt_name": null, "ruins": null, "wikipedia": "it:Castel Regino", "wikidata": "Q3662116", "wheelchair": null, "website": null, "name": "Schloß Reineck - Castel Regino", "castle_t_2": null, "century": 13 }, "geometry": { "type": "Point", "coordinates": [ 11.3637653, 46.6408764 ] } },
{ "type": "Feature", "properties": { "full_id": "n1769504338", "osm_id": "1769504338", "osm_type": "node", "historic": "castle", "castle_typ": null, "descriptio": null, "building_c": null, "old_name": null, "alt_name": null, "ruins": "yes", "wikipedia": "de:Burg Kogl", "wikidata": "Q2664353", "wheelchair": null, "website": null, "name": "Burg Kogl", "castle_t_2": "defensive", "century": 13 }, "geometry": { "type": "Point", "coordinates": [ 13.4627526, 47.9379635 ] } },
{ "type": "Feature", "properties": { "full_id": "n1770299602", "osm_id": "1770299602", "osm_type": "node", "historic": "castle", "castle_typ": null, "descriptio": null, "building_c": null, "old_name": null, "alt_name": null, "ruins": "castle", "wikipedia": "de:Ruine Gillitzstein", "wikidata": "Q26834284", "wheelchair": null, "website": null, "name": "Burgruine Gillitzstein", "castle_t_2": "manor", "century": 0 }, "geometry": { "type": "Point", "coordinates": [ 14.5675899, 46.8168948 ] } },
{ "type": "Feature", "properties": { "full_id": "n1783257660", "osm_id": "1783257660", "osm_type": "node", "historic": "castle", "castle_typ": null, "descriptio": null, "building_c": null, "old_name": null, "alt_name": null, "ruins": "yes", "wikipedia": "de:Burgruine Lobenstein (Mühlviertel)", "wikidata": "Q1015408", "wheelchair": null, "website": null, "name": "Ruine Lobenstein", "castle_t_2": "defensive", "century": 13 }, "geometry": { "type": "Point", "coordinates": [ 14.2374433, 48.4446188 ] } },
{ "type": "Feature", "properties": { "full_id": "n1814583962", "osm_id": "1814583962", "osm_type": "node", "historic": "castle", "castle_typ": null, "descriptio": null, "building_c": null, "old_name": null, "alt_name": "Burgruine Wildeneck", "ruins": "yes", "wikipedia": "de:Burgruine Wildeneck (Oberösterreich)", "wikidata": "Q1015585", "wheelchair": null, "website": null, "name": "Burgruine Wildenegg", "castle_t_2": "defensive", "century": 12 }, "geometry": { "type": "Point", "coordinates": [ 13.2902153, 47.9139396 ] } },
{ "type": "Feature", "properties": { "full_id": "n1848012271", "osm_id": "1848012271", "osm_type": "node", "historic": "castle", "castle_typ": null, "descriptio": null, "building_c": null, "old_name": null, "alt_name": null, "ruins": null, "wikipedia": "cs:Zvíkov (tvrz)", "wikidata": "Q21685648", "wheelchair": null, "website": null, "name": "Tvrz Zvíkov", "castle_t_2": "fortified_manor", "century": 15 }, "geometry": { "type": "Point", "coordinates": [ 14.6182692, 48.9805386 ] } },
{ "type": "Feature", "properties": { "full_id": "n1858455948", "osm_id": "1858455948", "osm_type": "node", "historic": "castle", "castle_typ": null, "descriptio": null, "building_c": null, "old_name": null, "alt_name": null, "ruins": "yes", "wikipedia": "de:Ruine Ortenburg", "wikidata": "Q872476", "wheelchair": null, "website": null, "name": "Ortenburg", "castle_t_2": "defensive", "century": 11 }, "geometry": { "type": "Point", "coordinates": [ 13.4588749, 46.7936113 ] } },
{ "type": "Feature", "properties": { "full_id": "n1873982077", "osm_id": "1873982077", "osm_type": "node", "historic": "castle", "castle_typ": null, "descriptio": null, "building_c": null, "old_name": null, "alt_name": "Burgruine Pichl", "ruins": "yes", "wikipedia": "de:Burgruine Pichl", "wikidata": "Q15713738", "wheelchair": null, "website": null, "name": "Ruine Pichl", "castle_t_2": "defensive", "century": 12 }, "geometry": { "type": "Point", "coordinates": [ 13.7348117, 47.1380999 ] } },
{ "type": "Feature", "properties": { "full_id": "n1873995793", "osm_id": "1873995793", "osm_type": "node", "historic": "castle", "castle_typ": null, "descriptio": null, "building_c": null, "old_name": null, "alt_name": null, "ruins": null, "wikipedia": null, "wikidata": "Q1015369", "wheelchair": null, "website": null, "name": "Klause Seetal", "castle_t_2": "defensive", "century": 11 }, "geometry": { "type": "Point", "coordinates": [ 13.9587511, 47.156913 ] } },
{ "type": "Feature", "properties": { "full_id": "n1930902385", "osm_id": "1930902385", "osm_type": "node", "historic": "castle", "castle_typ": null, "descriptio": null, "building_c": null, "old_name": null, "alt_name": null, "ruins": "yes", "wikipedia": "de:Burgruine Weidenburg", "wikidata": "Q1015573", "wheelchair": null, "website": null, "name": "Burgruine Weidenburg", "castle_t_2": "defensive", "century": 13 }, "geometry": { "type": "Point", "coordinates": [ 13.0572182, 46.6475733 ] } },
{ "type": "Feature", "properties": { "full_id": "n1964183503", "osm_id": "1964183503", "osm_type": "node", "historic": null, "castle_typ": null, "descriptio": null, "building_c": null, "old_name": null, "alt_name": null, "ruins": null, "wikipedia": null, "wikidata": null, "wheelchair": null, "website": null, "name": null, "castle_t_2": null, "century": 14 }, "geometry": { "type": "Point", "coordinates": [ 13.3398244377435, 48.730332030273246 ] } },
{ "type": "Feature", "properties": { "full_id": "n1975115178", "osm_id": "1975115178", "osm_type": "node", "historic": "castle", "castle_typ": null, "descriptio": null, "building_c": null, "old_name": null, "alt_name": "Kuntlburg", "ruins": "yes", "wikipedia": null, "wikidata": "Q37807345", "wheelchair": null, "website": null, "name": "Burgruine Kundl", "castle_t_2": "defensive", "century": 13 }, "geometry": { "type": "Point", "coordinates": [ 11.9904099, 47.4602267 ] } },
{ "type": "Feature", "properties": { "full_id": "n2015783478", "osm_id": "2015783478", "osm_type": "node", "historic": "castle", "castle_typ": null, "descriptio": null, "building_c": null, "old_name": null, "alt_name": null, "ruins": null, "wikipedia": "de:Schloss Egg", "wikidata": "Q2240735", "wheelchair": null, "website": null, "name": "Schloss Egg", "castle_t_2": "defensive", "century": 12 }, "geometry": { "type": "Point", "coordinates": [ 12.9218106, 48.8819868 ] } },
{ "type": "Feature", "properties": { "full_id": "n2026170510", "osm_id": "2026170510", "osm_type": "node", "historic": "castle", "castle_typ": null, "descriptio": null, "building_c": null, "old_name": null, "alt_name": null, "ruins": "yes", "wikipedia": null, "wikidata": "Q37751987", "wheelchair": null, "website": null, "name": "Burgruine Falkenstein", "castle_t_2": "defensive", "century": 0 }, "geometry": { "type": "Point", "coordinates": [ 12.2987241, 47.3669116 ] } },
{ "type": "Feature", "properties": { "full_id": "n2178467047", "osm_id": "2178467047", "osm_type": "node", "historic": "castle", "castle_typ": null, "descriptio": null, "building_c": null, "old_name": null, "alt_name": null, "ruins": null, "wikipedia": null, "wikidata": "Q41174283", "wheelchair": "limited", "website": null, "name": "Schloss Stein an der Traun", "castle_t_2": null, "century": 12 }, "geometry": { "type": "Point", "coordinates": [ 12.5476127, 47.9878419 ] } },
{ "type": "Feature", "properties": { "full_id": "n2330971301", "osm_id": "2330971301", "osm_type": "node", "historic": "castle", "castle_typ": null, "descriptio": null, "building_c": null, "old_name": null, "alt_name": null, "ruins": "yes", "wikipedia": "de:Burgruine Mitterberg", "wikidata": "Q1015419", "wheelchair": null, "website": null, "name": "Burgruine Mitterberg", "castle_t_2": "defensive", "century": 12 }, "geometry": { "type": "Point", "coordinates": [ 14.6593068, 48.2523052 ] } },
{ "type": "Feature", "properties": { "full_id": "n2368434864", "osm_id": "2368434864", "osm_type": "node", "historic": "castle", "castle_typ": null, "descriptio": null, "building_c": null, "old_name": null, "alt_name": null, "ruins": "yes", "wikipedia": null, "wikidata": "Q38148927", "wheelchair": null, "website": null, "name": "Burgruine Liechtenstein", "castle_t_2": "defensive", "century": 11 }, "geometry": { "type": "Point", "coordinates": [ 14.6756011, 47.1668447 ] } },
{ "type": "Feature", "properties": { "full_id": "n2382830066", "osm_id": "2382830066", "osm_type": "node", "historic": "castle", "castle_typ": null, "descriptio": "Ungarnfluchtburg um 900. Nur noch Grabenreste sichtbar", "building_c": null, "old_name": null, "alt_name": null, "ruins": "yes", "wikipedia": null, "wikidata": null, "wheelchair": null, "website": null, "name": "Burgstall Urschalling", "castle_t_2": "defensive", "century": 0 }, "geometry": { "type": "Point", "coordinates": [ 12.3313356, 47.8490981 ] } },
{ "type": "Feature", "properties": { "full_id": "n2419046147", "osm_id": "2419046147", "osm_type": "node", "historic": "castle", "castle_typ": null, "descriptio": null, "building_c": null, "old_name": null, "alt_name": null, "ruins": "yes", "wikipedia": "de:Burgruine Lichtentann", "wikidata": "Q1015403", "wheelchair": null, "website": null, "name": "Burgruine Lichtentann", "castle_t_2": null, "century": 13 }, "geometry": { "type": "Point", "coordinates": [ 13.2348043, 47.8984301 ] } },
{ "type": "Feature", "properties": { "full_id": "n2427323256", "osm_id": "2427323256", "osm_type": "node", "historic": "castle", "castle_typ": null, "descriptio": null, "building_c": null, "old_name": null, "alt_name": null, "ruins": "yes", "wikipedia": null, "wikidata": "Q1431577", "wheelchair": null, "website": null, "name": "Burgruine Altjochenstein", "castle_t_2": "defensive", "century": 12 }, "geometry": { "type": "Point", "coordinates": [ 13.7308027, 48.5171052 ] } },
{ "type": "Feature", "properties": { "full_id": "n2454239040", "osm_id": "2454239040", "osm_type": "node", "historic": "castle", "castle_typ": null, "descriptio": null, "building_c": null, "old_name": null, "alt_name": null, "ruins": null, "wikipedia": "it:Castello di Monguelfo", "wikidata": "Q781427", "wheelchair": null, "website": "http://events.welsberg.com", "name": "Castello Monguelfo - Schloss Welsberg", "castle_t_2": null, "century": 12 }, "geometry": { "type": "Point", "coordinates": [ 12.113773, 46.7597384 ] } },
{ "type": "Feature", "properties": { "full_id": "n2454677139", "osm_id": "2454677139", "osm_type": "node", "historic": "castle", "castle_typ": null, "descriptio": "Höhenburg auf nach drei Seiten steil abfallendem Höhenrücken, gemörteltes Mauerwerk (Burgstall, geringe Mauerspuren)", "building_c": "recognizable_remains", "old_name": null, "alt_name": null, "ruins": "yes", "wikipedia": "de:Burgstall Rettenburg", "wikidata": "Q15108432", "wheelchair": null, "website": null, "name": "Burgstall Rettenburg", "castle_t_2": "defensive", "century": 12 }, "geometry": { "type": "Point", "coordinates": [ 12.4612887, 47.7178279 ] } },
{ "type": "Feature", "properties": { "full_id": "n2490685596", "osm_id": "2490685596", "osm_type": "node", "historic": "castle", "castle_typ": null, "descriptio": null, "building_c": null, "old_name": null, "alt_name": null, "ruins": "yes", "wikipedia": "de:Burgruine Harchheim", "wikidata": "Q1015318", "wheelchair": null, "website": null, "name": "Burgruine Burgstall", "castle_t_2": null, "century": 0 }, "geometry": { "type": "Point", "coordinates": [ 13.7698958, 48.458095 ] } },
{ "type": "Feature", "properties": { "full_id": "n2673278292", "osm_id": "2673278292", "osm_type": "node", "historic": "castle", "castle_typ": null, "descriptio": null, "building_c": null, "old_name": null, "alt_name": null, "ruins": "yes", "wikipedia": "de:Burgruine Spielberg", "wikidata": "Q1015521", "wheelchair": null, "website": null, "name": "Burgruine Spielberg", "castle_t_2": "defensive", "century": 12 }, "geometry": { "type": "Point", "coordinates": [ 14.4702951, 48.2444532 ] } },
{ "type": "Feature", "properties": { "full_id": "n2772353679", "osm_id": "2772353679", "osm_type": "node", "historic": "castle", "castle_typ": null, "descriptio": null, "building_c": null, "old_name": null, "alt_name": null, "ruins": "yes", "wikipedia": "de:Burgruine Reichenfels (Kärnten)", "wikidata": "Q38108811", "wheelchair": null, "website": null, "name": "Burgruine Reichenfels", "castle_t_2": "defensive", "century": 0 }, "geometry": { "type": "Point", "coordinates": [ 14.7325503, 47.0044489 ] } },
{ "type": "Feature", "properties": { "full_id": "n2896009144", "osm_id": "2896009144", "osm_type": "node", "historic": "castle", "castle_typ": null, "descriptio": "Kleine Mauerkontouren sichtbar", "building_c": null, "old_name": null, "alt_name": null, "ruins": "yes", "wikipedia": "de:Burgstall Hohenstein (Staudach-Egerndach)", "wikidata": "Q15108394", "wheelchair": null, "website": null, "name": "Burgstall Hohenstein", "castle_t_2": "defensive", "century": 12 }, "geometry": { "type": "Point", "coordinates": [ 12.4906751, 47.7744558 ] } },
{ "type": "Feature", "properties": { "full_id": "n3211509840", "osm_id": "3211509840", "osm_type": "node", "historic": "castle", "castle_typ": null, "descriptio": null, "building_c": null, "old_name": null, "alt_name": null, "ruins": null, "wikipedia": "de:Burg Altmannstein", "wikidata": "Q1010773", "wheelchair": null, "website": null, "name": "Burg Altmannstein", "castle_t_2": "defensive", "century": 12 }, "geometry": { "type": "Point", "coordinates": [ 11.6528303, 48.8960108 ] } },
{ "type": "Feature", "properties": { "full_id": "n3213879339", "osm_id": "3213879339", "osm_type": "node", "historic": "castle", "castle_typ": null, "descriptio": null, "building_c": null, "old_name": null, "alt_name": null, "ruins": "yes", "wikipedia": "it:Castello di Botestagno", "wikidata": "Q3662504", "wheelchair": null, "website": null, "name": "Castello di Podestagno", "castle_t_2": null, "century": 12 }, "geometry": { "type": "Point", "coordinates": [ 12.1129487, 46.5967087 ] } },
{ "type": "Feature", "properties": { "full_id": "n3249831568", "osm_id": "3249831568", "osm_type": "node", "historic": "castle", "castle_typ": null, "descriptio": null, "building_c": null, "old_name": null, "alt_name": null, "ruins": "yes", "wikipedia": "de:Burgruine Rotenfels", "wikidata": "Q1015489", "wheelchair": null, "website": null, "name": "Burgruine Rotenfels", "castle_t_2": "defensive", "century": 12 }, "geometry": { "type": "Point", "coordinates": [ 14.1688733, 48.4472668 ] } },
{ "type": "Feature", "properties": { "full_id": "n3255236654", "osm_id": "3255236654", "osm_type": "node", "historic": "castle", "castle_typ": null, "descriptio": null, "building_c": null, "old_name": null, "alt_name": null, "ruins": "yes", "wikipedia": "de:Burgstall Kirchberg ob der Donau", "wikidata": "Q15108401", "wheelchair": null, "website": null, "name": "Großer Burgstall", "castle_t_2": "defensive", "century": 12 }, "geometry": { "type": "Point", "coordinates": [ 13.9285858, 48.4456025 ] } },
{ "type": "Feature", "properties": { "full_id": "n3270049557", "osm_id": "3270049557", "osm_type": "node", "historic": "castle", "castle_typ": null, "descriptio": null, "building_c": null, "old_name": null, "alt_name": null, "ruins": "yes", "wikipedia": "de:Burgstall Winzberg", "wikidata": "Q15108463", "wheelchair": null, "website": null, "name": "Burg Winzberg", "castle_t_2": "defensive", "century": 13 }, "geometry": { "type": "Point", "coordinates": [ 13.9633425, 48.4207586 ] } },
{ "type": "Feature", "properties": { "full_id": "n3270049558", "osm_id": "3270049558", "osm_type": "node", "historic": "castle", "castle_typ": null, "descriptio": null, "building_c": null, "old_name": null, "alt_name": null, "ruins": "yes", "wikipedia": null, "wikidata": null, "wheelchair": null, "website": null, "name": "Burg Partenstein", "castle_t_2": "defensive", "century": 13 }, "geometry": { "type": "Point", "coordinates": [ 13.9852558, 48.4320035 ] } },
{ "type": "Feature", "properties": { "full_id": "n3270049559", "osm_id": "3270049559", "osm_type": "node", "historic": "castle", "castle_typ": null, "descriptio": null, "building_c": null, "old_name": null, "alt_name": null, "ruins": "yes", "wikipedia": null, "wikidata": null, "wheelchair": null, "website": null, "name": "Raubschloss Kasten", "castle_t_2": "defensive", "century": 0 }, "geometry": { "type": "Point", "coordinates": [ 13.9777983, 48.4317813 ] } },
{ "type": "Feature", "properties": { "full_id": "n3270049560", "osm_id": "3270049560", "osm_type": "node", "historic": "castle", "castle_typ": null, "descriptio": null, "building_c": null, "old_name": null, "alt_name": null, "ruins": "yes", "wikipedia": "de:Burgruine Steinerberg", "wikidata": "Q15108355", "wheelchair": null, "website": null, "name": "Burg Steinerberg", "castle_t_2": "defensive", "century": 12 }, "geometry": { "type": "Point", "coordinates": [ 13.9502033, 48.4651029 ] } },
{ "type": "Feature", "properties": { "full_id": "n3273888164", "osm_id": "3273888164", "osm_type": "node", "historic": "castle", "castle_typ": null, "descriptio": null, "building_c": null, "old_name": null, "alt_name": "Raubschlössl", "ruins": "yes", "wikipedia": null, "wikidata": null, "wheelchair": null, "website": null, "name": "Aschburg", "castle_t_2": null, "century": 0 }, "geometry": { "type": "Point", "coordinates": [ 11.7771491, 46.8195316 ] } },
{ "type": "Feature", "properties": { "full_id": "n3424469991", "osm_id": "3424469991", "osm_type": "node", "historic": "castle", "castle_typ": null, "descriptio": null, "building_c": null, "old_name": null, "alt_name": null, "ruins": null, "wikipedia": null, "wikidata": "Q119316507", "wheelchair": null, "website": null, "name": "Burgruine Weißenstein", "castle_t_2": "defensive", "century": 12 }, "geometry": { "type": "Point", "coordinates": [ 13.7344829, 46.6853075 ] } },
{ "type": "Feature", "properties": { "full_id": "n3522572728", "osm_id": "3522572728", "osm_type": "node", "historic": "castle", "castle_typ": null, "descriptio": null, "building_c": null, "old_name": null, "alt_name": "Leonstein", "ruins": "yes", "wikipedia": "de:Burgruine Edenvest", "wikidata": "Q4998679", "wheelchair": null, "website": null, "name": "Edenvest", "castle_t_2": "defensive", "century": 12 }, "geometry": { "type": "Point", "coordinates": [ 13.7282215, 47.0727838 ] } },
{ "type": "Feature", "properties": { "full_id": "n3523098314", "osm_id": "3523098314", "osm_type": "node", "historic": "castle", "castle_typ": null, "descriptio": null, "building_c": null, "old_name": null, "alt_name": "Mühlbacher Schloss", "ruins": "yes", "wikipedia": null, "wikidata": "Q37742578", "wheelchair": null, "website": null, "name": "Weidegg", "castle_t_2": "defensive", "century": 0 }, "geometry": { "type": "Point", "coordinates": [ 13.488169, 46.9655345 ] } },
{ "type": "Feature", "properties": { "full_id": "n3523098315", "osm_id": "3523098315", "osm_type": "node", "historic": "castle", "castle_typ": null, "descriptio": null, "building_c": null, "old_name": null, "alt_name": "Burgruine Malenthein;Burgruine Rauchenfest;Burgruine Rauhenfest;Sonnenburg", "ruins": "yes", "wikipedia": "de:Burgruine Ödenfest", "wikidata": "Q15793092", "wheelchair": null, "website": null, "name": "Burgruine Ödenfest", "castle_t_2": "defensive", "century": 11 }, "geometry": { "type": "Point", "coordinates": [ 13.5133916, 46.9576713 ] } },
{ "type": "Feature", "properties": { "full_id": "n3523113942", "osm_id": "3523113942", "osm_type": "node", "historic": "castle", "castle_typ": null, "descriptio": null, "building_c": null, "old_name": null, "alt_name": null, "ruins": "yes", "wikipedia": "de:Burgruine Leobenegg", "wikidata": "Q4998693", "wheelchair": null, "website": null, "name": "Leobenegg", "castle_t_2": "defensive", "century": 13 }, "geometry": { "type": "Point", "coordinates": [ 13.6041278, 46.9366778 ] } },
{ "type": "Feature", "properties": { "full_id": "n3529043646", "osm_id": "3529043646", "osm_type": "node", "historic": null, "castle_typ": null, "descriptio": null, "building_c": null, "old_name": null, "alt_name": null, "ruins": null, "wikipedia": null, "wikidata": null, "wheelchair": null, "website": null, "name": "Burg zu Burghausen", "castle_t_2": null, "century": 11 }, "geometry": { "type": "Point", "coordinates": [ 12.831179984602084, 48.15996362913549 ] } },
{ "type": "Feature", "properties": { "full_id": "n3677438296", "osm_id": "3677438296", "osm_type": "node", "historic": "castle", "castle_typ": null, "descriptio": null, "building_c": null, "old_name": null, "alt_name": null, "ruins": null, "wikipedia": "cs:Kunžvart", "wikidata": "Q12031943", "wheelchair": null, "website": null, "name": "Kunžvart", "castle_t_2": "defensive", "century": 14 }, "geometry": { "type": "Point", "coordinates": [ 13.7094165, 48.9209727 ] } },
{ "type": "Feature", "properties": { "full_id": "n3721592295", "osm_id": "3721592295", "osm_type": "node", "historic": null, "castle_typ": null, "descriptio": null, "building_c": null, "old_name": null, "alt_name": null, "ruins": null, "wikipedia": null, "wikidata": null, "wheelchair": null, "website": null, "name": "Festung Hohenwerfen", "castle_t_2": null, "century": 11 }, "geometry": { "type": "Point", "coordinates": [ 13.1883295, 47.4829641 ] } },
{ "type": "Feature", "properties": { "full_id": "n3733210567", "osm_id": "3733210567", "osm_type": "node", "historic": "castle", "castle_typ": null, "descriptio": "Goldenstein hat eine Vorgängerin - die Goldburg. Urkundlich erstmals 1227 erwähnt", "building_c": null, "old_name": null, "alt_name": null, "ruins": "yes", "wikipedia": null, "wikidata": "Q37889121", "wheelchair": null, "website": null, "name": "Burgruine Goldenstein", "castle_t_2": "defensive", "century": 0 }, "geometry": { "type": "Point", "coordinates": [ 13.0583402, 46.6739704 ] } },
{ "type": "Feature", "properties": { "full_id": "n3782554852", "osm_id": "3782554852", "osm_type": "node", "historic": "castle", "castle_typ": null, "descriptio": null, "building_c": "ruinous", "old_name": null, "alt_name": null, "ruins": null, "wikipedia": null, "wikidata": null, "wheelchair": null, "website": null, "name": "Neufels", "castle_t_2": "fortress", "century": 14 }, "geometry": { "type": "Point", "coordinates": [ 13.4432224, 48.5260062 ] } },
{ "type": "Feature", "properties": { "full_id": "n3787449983", "osm_id": "3787449983", "osm_type": "node", "historic": "castle", "castle_typ": null, "descriptio": null, "building_c": null, "old_name": null, "alt_name": null, "ruins": "yes", "wikipedia": "de:Burgstall Michaelsberg", "wikidata": "Q15108417", "wheelchair": null, "website": null, "name": "Burgruine Michelsberg", "castle_t_2": "defensive", "century": 11 }, "geometry": { "type": "Point", "coordinates": [ 11.3915588, 48.9449124 ] } },
{ "type": "Feature", "properties": { "full_id": "n4032665154", "osm_id": "4032665154", "osm_type": "node", "historic": null, "castle_typ": null, "descriptio": null, "building_c": null, "old_name": null, "alt_name": null, "ruins": null, "wikipedia": null, "wikidata": null, "wheelchair": null, "website": null, "name": "Schloss Frauenstein", "castle_t_2": null, "century": 12 }, "geometry": { "type": "Point", "coordinates": [ 14.3338855, 46.7900027 ] } },
{ "type": "Feature", "properties": { "full_id": "n4032806271", "osm_id": "4032806271", "osm_type": "node", "historic": null, "castle_typ": null, "descriptio": null, "building_c": null, "old_name": null, "alt_name": null, "ruins": null, "wikipedia": null, "wikidata": null, "wheelchair": null, "website": null, "name": "Kraiger Schlösser", "castle_t_2": null, "century": 11 }, "geometry": { "type": "Point", "coordinates": [ 14.3459077, 46.7973324 ] } },
{ "type": "Feature", "properties": { "full_id": "n4033376375", "osm_id": "4033376375", "osm_type": "node", "historic": "castle", "castle_typ": null, "descriptio": null, "building_c": null, "old_name": null, "alt_name": null, "ruins": "yes", "wikipedia": "de:Ruine Schaumburg", "wikidata": "Q17325982", "wheelchair": null, "website": null, "name": "Ruine Schaumburg", "castle_t_2": "defensive", "century": 12 }, "geometry": { "type": "Point", "coordinates": [ 14.291255, 46.7902168 ] } },
{ "type": "Feature", "properties": { "full_id": "n4142374065", "osm_id": "4142374065", "osm_type": "node", "historic": "castle", "castle_typ": null, "descriptio": null, "building_c": null, "old_name": null, "alt_name": null, "ruins": "yes", "wikipedia": "de:Burg Plankenau", "wikidata": "Q15790357", "wheelchair": "no", "website": null, "name": "Burg Plankenau", "castle_t_2": "defensive", "century": 12 }, "geometry": { "type": "Point", "coordinates": [ 13.183983, 47.3249192 ] } },
{ "type": "Feature", "properties": { "full_id": "n4318583078", "osm_id": "4318583078", "osm_type": "node", "historic": "castle", "castle_typ": null, "descriptio": null, "building_c": null, "old_name": null, "alt_name": "Ruine Burg Engelsberg", "ruins": "yes", "wikipedia": null, "wikidata": "Q37988438", "wheelchair": null, "website": null, "name": "Burgruine Engelsberg", "castle_t_2": "defensive", "century": 0 }, "geometry": { "type": "Point", "coordinates": [ 12.1625976, 47.4363396 ] } },
{ "type": "Feature", "properties": { "full_id": "n4470970283", "osm_id": "4470970283", "osm_type": "node", "historic": "castle", "castle_typ": null, "descriptio": "es ist nur mehr der Brunnenschacht erhalten", "building_c": null, "old_name": null, "alt_name": null, "ruins": "yes", "wikipedia": null, "wikidata": null, "wheelchair": null, "website": null, "name": "Ruine Schellenstein", "castle_t_2": null, "century": 0 }, "geometry": { "type": "Point", "coordinates": [ 14.1040042, 47.8731966 ] } },
{ "type": "Feature", "properties": { "full_id": "n4608014617", "osm_id": "4608014617", "osm_type": "node", "historic": null, "castle_typ": null, "descriptio": null, "building_c": null, "old_name": null, "alt_name": null, "ruins": null, "wikipedia": null, "wikidata": null, "wheelchair": null, "website": null, "name": "Burg Gmünd", "castle_t_2": null, "century": 14 }, "geometry": { "type": "Point", "coordinates": [ 13.5358775, 46.9088365 ] } },
{ "type": "Feature", "properties": { "full_id": "n4649336564", "osm_id": "4649336564", "osm_type": "node", "historic": null, "castle_typ": null, "descriptio": null, "building_c": null, "old_name": null, "alt_name": null, "ruins": null, "wikipedia": null, "wikidata": null, "wheelchair": null, "website": null, "name": "Burg Gallenstein", "castle_t_2": null, "century": 13 }, "geometry": { "type": "Point", "coordinates": [ 14.6266894, 47.69063 ] } },
{ "type": "Feature", "properties": { "full_id": "n4798154463", "osm_id": "4798154463", "osm_type": "node", "historic": "castle", "castle_typ": null, "descriptio": null, "building_c": null, "old_name": null, "alt_name": null, "ruins": "yes", "wikipedia": "de:Ruine Königstein (Oberösterreich)", "wikidata": "Q2175333", "wheelchair": null, "website": null, "name": "Ruine Königstein (Ecker G'schlössl)", "castle_t_2": null, "century": 15 }, "geometry": { "type": "Point", "coordinates": [ 13.5411, 48.5592907 ] } },
{ "type": "Feature", "properties": { "full_id": "n5244886703", "osm_id": "5244886703", "osm_type": "node", "historic": null, "castle_typ": null, "descriptio": null, "building_c": null, "old_name": null, "alt_name": null, "ruins": null, "wikipedia": null, "wikidata": null, "wheelchair": null, "website": null, "name": "Burg Obernberg", "castle_t_2": null, "century": 11 }, "geometry": { "type": "Point", "coordinates": [ 13.3337813, 48.3225059 ] } },
{ "type": "Feature", "properties": { "full_id": "n5265332857", "osm_id": "5265332857", "osm_type": "node", "historic": "wayside_cross", "castle_typ": null, "descriptio": null, "building_c": null, "old_name": null, "alt_name": null, "ruins": null, "wikipedia": null, "wikidata": null, "wheelchair": null, "website": null, "name": "Burg St. Jakob am Thurn", "castle_t_2": null, "century": 12 }, "geometry": { "type": "Point", "coordinates": [ 13.0949403, 47.7408789 ] } },
{ "type": "Feature", "properties": { "full_id": "n5314484453", "osm_id": "5314484453", "osm_type": "node", "historic": "castle", "castle_typ": null, "descriptio": null, "building_c": null, "old_name": null, "alt_name": null, "ruins": null, "wikipedia": "de:Burg Angerberg", "wikidata": "Q47008894", "wheelchair": null, "website": null, "name": "Burg Angerberg", "castle_t_2": "defensive", "century": 13 }, "geometry": { "type": "Point", "coordinates": [ 13.4335284, 48.6744792 ] } },
{ "type": "Feature", "properties": { "full_id": "n5497674363", "osm_id": "5497674363", "osm_type": "node", "historic": "castle", "castle_typ": null, "descriptio": null, "building_c": null, "old_name": null, "alt_name": null, "ruins": null, "wikipedia": "de:Burg Heinfels", "wikidata": "Q1012269", "wheelchair": null, "website": "https://www.burg-heinfels.com", "name": "Burg Heinfels", "castle_t_2": "defensive", "century": 13 }, "geometry": { "type": "Point", "coordinates": [ 12.4396803, 46.7511009 ] } },
{ "type": "Feature", "properties": { "full_id": "n5585736594", "osm_id": "5585736594", "osm_type": "node", "historic": "castle", "castle_typ": null, "descriptio": null, "building_c": null, "old_name": null, "alt_name": null, "ruins": "yes", "wikipedia": "de:Burg Unter-Falkenstein (Flintsbach am Inn)", "wikidata": "Q1014329", "wheelchair": null, "website": null, "name": "Burgruine Falkenstein", "castle_t_2": "defensive", "century": 13 }, "geometry": { "type": "Point", "coordinates": [ 12.1313824, 47.7160399 ] } },
{ "type": "Feature", "properties": { "full_id": "n5845320628", "osm_id": "5845320628", "osm_type": "node", "historic": "castle", "castle_typ": null, "descriptio": null, "building_c": null, "old_name": null, "alt_name": null, "ruins": "yes", "wikipedia": "de:Burg Kienburg", "wikidata": "Q1012652", "wheelchair": null, "website": null, "name": "Burg Kienburg", "castle_t_2": "defensive", "century": 9 }, "geometry": { "type": "Point", "coordinates": [ 12.6002129, 46.9190646 ] } },
{ "type": "Feature", "properties": { "full_id": "n6265489888", "osm_id": "6265489888", "osm_type": "node", "historic": "castle", "castle_typ": null, "descriptio": null, "building_c": null, "old_name": null, "alt_name": null, "ruins": "yes", "wikipedia": "cs:Hus", "wikidata": "Q1012524", "wheelchair": null, "website": null, "name": "Hus - zřícenina", "castle_t_2": "defensive", "century": 14 }, "geometry": { "type": "Point", "coordinates": [ 13.9292164, 48.9575454 ] } },
{ "type": "Feature", "properties": { "full_id": "n6357730978", "osm_id": "6357730978", "osm_type": "node", "historic": null, "castle_typ": null, "descriptio": null, "building_c": null, "old_name": null, "alt_name": null, "ruins": null, "wikipedia": null, "wikidata": null, "wheelchair": null, "website": null, "name": "Rothschildschloss", "castle_t_2": null, "century": 13 }, "geometry": { "type": "Point", "coordinates": [ 14.77364442988755, 47.963082986399741 ] } },
{ "type": "Feature", "properties": { "full_id": "n6501939707", "osm_id": "6501939707", "osm_type": "node", "historic": "castle", "castle_typ": null, "descriptio": null, "building_c": null, "old_name": null, "alt_name": null, "ruins": "yes", "wikipedia": "de:Burgruinen Lind", "wikidata": "Q15790411", "wheelchair": null, "website": null, "name": "Burgstall Oberlind", "castle_t_2": "defensive", "century": 12 }, "geometry": { "type": "Point", "coordinates": [ 13.3630833, 46.7670833 ] } },
{ "type": "Feature", "properties": { "full_id": "n6501939708", "osm_id": "6501939708", "osm_type": "node", "historic": "castle", "castle_typ": null, "descriptio": null, "building_c": null, "old_name": null, "alt_name": null, "ruins": "yes", "wikipedia": "de:Burgruinen Lind", "wikidata": "Q15790411", "wheelchair": null, "website": null, "name": "Burgstall Unterlind", "castle_t_2": "defensive", "century": 12 }, "geometry": { "type": "Point", "coordinates": [ 13.3605967, 46.7662197 ] } },
{ "type": "Feature", "properties": { "full_id": "n6740219302", "osm_id": "6740219302", "osm_type": "node", "historic": "castle", "castle_typ": null, "descriptio": null, "building_c": null, "old_name": null, "alt_name": null, "ruins": "yes", "wikipedia": "de:Burgruine Raschenberg", "wikidata": "Q1015467", "wheelchair": null, "website": null, "name": "Burgruine Raschenberg", "castle_t_2": "defensive", "century": 12 }, "geometry": { "type": "Point", "coordinates": [ 12.784273, 47.846908 ] } },
{ "type": "Feature", "properties": { "full_id": "n7010746345", "osm_id": "7010746345", "osm_type": "node", "historic": "castle", "castle_typ": null, "descriptio": null, "building_c": null, "old_name": null, "alt_name": null, "ruins": "yes", "wikipedia": null, "wikidata": "Q38079991", "wheelchair": null, "website": null, "name": "Vorburg Burgruine Keutschach", "castle_t_2": "defensive", "century": 0 }, "geometry": { "type": "Point", "coordinates": [ 14.1615, 46.6002 ] } },
{ "type": "Feature", "properties": { "full_id": "n7146070560", "osm_id": "7146070560", "osm_type": "node", "historic": "castle", "castle_typ": null, "descriptio": null, "building_c": null, "old_name": null, "alt_name": null, "ruins": null, "wikipedia": "de:Schloss Rosenburg (Riedenburg)", "wikidata": "Q1514016", "wheelchair": "limited", "website": null, "name": "Schloss Rosenburg", "castle_t_2": "fortress", "century": 12 }, "geometry": { "type": "Point", "coordinates": [ 11.680362, 48.9605024 ] } },
{ "type": "Feature", "properties": { "full_id": "n7289369245", "osm_id": "7289369245", "osm_type": "node", "historic": null, "castle_typ": null, "descriptio": null, "building_c": null, "old_name": null, "alt_name": null, "ruins": null, "wikipedia": null, "wikidata": null, "wheelchair": null, "website": null, "name": "Burg Villach", "castle_t_2": null, "century": 11 }, "geometry": { "type": "Point", "coordinates": [ 13.843461392404922, 46.615766690790238 ] } },
{ "type": "Feature", "properties": { "full_id": "n7555698313", "osm_id": "7555698313", "osm_type": "node", "historic": "castle", "castle_typ": null, "descriptio": null, "building_c": null, "old_name": null, "alt_name": "Burgruine Teufenbach", "ruins": "yes", "wikipedia": null, "wikidata": "Q37964096", "wheelchair": null, "website": null, "name": "Burgruine Painburg", "castle_t_2": "defensive", "century": 16 }, "geometry": { "type": "Point", "coordinates": [ 14.7816389, 46.9860061 ] } },
{ "type": "Feature", "properties": { "full_id": "n7650482019", "osm_id": "7650482019", "osm_type": "node", "historic": null, "castle_typ": null, "descriptio": null, "building_c": null, "old_name": null, "alt_name": null, "ruins": null, "wikipedia": null, "wikidata": null, "wheelchair": null, "website": null, "name": "Burgruine Thaur ", "castle_t_2": null, "century": 13 }, "geometry": { "type": "Point", "coordinates": [ 11.4659052, 47.301113 ] } },
{ "type": "Feature", "properties": { "full_id": "n8167459532", "osm_id": "8167459532", "osm_type": "node", "historic": "castle", "castle_typ": null, "descriptio": null, "building_c": null, "old_name": null, "alt_name": null, "ruins": "yes", "wikipedia": null, "wikidata": "Q38077369", "wheelchair": null, "website": null, "name": "Burgruine Oberstainach", "castle_t_2": "defensive", "century": 13 }, "geometry": { "type": "Point", "coordinates": [ 14.1049126, 47.5352912 ] } },
{ "type": "Feature", "properties": { "full_id": "n8384305059", "osm_id": "8384305059", "osm_type": "node", "historic": "castle", "castle_typ": null, "descriptio": "in den 1970er Jahren wurde der um die Ruine führende Graben geflutet, sodass heute kein direkter Zugang zu dem Gemäuer möglich ist", "building_c": null, "old_name": null, "alt_name": null, "ruins": "yes", "wikipedia": "de:Burgruine Zöch", "wikidata": "Q14544414", "wheelchair": null, "website": null, "name": "Burgruine Zöch", "castle_t_2": "defensive", "century": 13 }, "geometry": { "type": "Point", "coordinates": [ 14.3498746, 48.3708664 ] } },
{ "type": "Feature", "properties": { "full_id": "n8541891735", "osm_id": "8541891735", "osm_type": "node", "historic": "castle", "castle_typ": null, "descriptio": "Der Reckturm, auch als Röckturm oder Bürgerturm benannt ist ein markanter Baurest der Veste Sulzeneck.", "building_c": null, "old_name": null, "alt_name": null, "ruins": null, "wikipedia": "de:Sulzeneck", "wikidata": "Q97483890", "wheelchair": null, "website": null, "name": "Burgruine Sulzenegg", "castle_t_2": "fortress", "century": 13 }, "geometry": { "type": "Point", "coordinates": [ 13.0897125, 47.6804638 ] } },
{ "type": "Feature", "properties": { "full_id": "n8925060732", "osm_id": "8925060732", "osm_type": "node", "historic": "castle", "castle_typ": null, "descriptio": null, "building_c": null, "old_name": null, "alt_name": "Neuhauser Burgstall", "ruins": "yes", "wikipedia": "de:Ruine Wimberg", "wikidata": "Q1015587", "wheelchair": null, "website": null, "name": "Ruine Wimberg", "castle_t_2": "defensive", "century": 9 }, "geometry": { "type": "Point", "coordinates": [ 13.4515142, 48.4984361 ] } },
{ "type": "Feature", "properties": { "full_id": "n9056637640", "osm_id": "9056637640", "osm_type": "node", "historic": "castle", "castle_typ": null, "descriptio": null, "building_c": null, "old_name": null, "alt_name": null, "ruins": "yes", "wikipedia": "de:Burgruine Schlossberg (Tamsweg)", "wikidata": "Q15669381", "wheelchair": null, "website": null, "name": "Burgruine Schlossberg", "castle_t_2": null, "century": 0 }, "geometry": { "type": "Point", "coordinates": [ 13.9066762, 47.1471801 ] } },
{ "type": "Feature", "properties": { "full_id": "n9439855164", "osm_id": "9439855164", "osm_type": "node", "historic": "castle", "castle_typ": null, "descriptio": null, "building_c": null, "old_name": null, "alt_name": "Saaleck", "ruins": "yes", "wikipedia": "de:Burgruine Saalegg", "wikidata": "Q4998708", "wheelchair": null, "website": null, "name": "Ruine Saalegg", "castle_t_2": "defensive", "century": 12 }, "geometry": { "type": "Point", "coordinates": [ 12.735593, 47.526001 ] } },
{ "type": "Feature", "properties": { "full_id": "n9439855165", "osm_id": "9439855165", "osm_type": "node", "historic": "castle", "castle_typ": null, "descriptio": null, "building_c": null, "old_name": null, "alt_name": "Veste Sulzau", "ruins": "yes", "wikipedia": "de:Burgruine Friedburg (Pinzgau)", "wikidata": "Q15623743", "wheelchair": null, "website": null, "name": "Burgruine Friedburg", "castle_t_2": "defensive", "century": 11 }, "geometry": { "type": "Point", "coordinates": [ 12.2391026, 47.2352865 ] } },
{ "type": "Feature", "properties": { "full_id": "n9440538750", "osm_id": "9440538750", "osm_type": "node", "historic": "castle", "castle_typ": null, "descriptio": "Dieser Teil der Ruinen der Vorburg der Burg Frauenburg dient als äußeres Tor zur Pfarrkirche.", "building_c": null, "old_name": null, "alt_name": null, "ruins": "yes", "wikipedia": null, "wikidata": "Q38149158", "wheelchair": null, "website": null, "name": "Burgruine Frauenburg", "castle_t_2": "defensive", "century": 13 }, "geometry": { "type": "Point", "coordinates": [ 14.437208956299775, 47.205096488212753 ] } },
{ "type": "Feature", "properties": { "full_id": "n9443121942", "osm_id": "9443121942", "osm_type": "node", "historic": "castle", "castle_typ": null, "descriptio": null, "building_c": null, "old_name": null, "alt_name": null, "ruins": "yes", "wikipedia": null, "wikidata": "Q98005041", "wheelchair": null, "website": null, "name": "Burgruine Asch", "castle_t_2": "defensive", "century": 0 }, "geometry": { "type": "Point", "coordinates": [ 12.554, 46.7655889 ] } },
{ "type": "Feature", "properties": { "full_id": "n9443121943", "osm_id": "9443121943", "osm_type": "node", "historic": "castle", "castle_typ": null, "descriptio": null, "building_c": null, "old_name": null, "alt_name": "Burgruine Ehrenberg", "ruins": "yes", "wikipedia": null, "wikidata": "Q105638938", "wheelchair": null, "website": null, "name": "Burgruine Erenberg", "castle_t_2": "defensive", "century": 13 }, "geometry": { "type": "Point", "coordinates": [ 12.782688, 46.811829 ] } },
{ "type": "Feature", "properties": { "full_id": "n9452241378", "osm_id": "9452241378", "osm_type": "node", "historic": "castle", "castle_typ": null, "descriptio": "Ein Auwaldgrundstück mit kaum erkennbaren Spuren einer Burg", "building_c": "recognizable_remains", "old_name": null, "alt_name": "Burgruine Zaucha", "ruins": "yes", "wikipedia": null, "wikidata": "Q37827188", "wheelchair": null, "website": null, "name": "Wasserburg Zaucha", "castle_t_2": "defensive", "century": 0 }, "geometry": { "type": "Point", "coordinates": [ 14.59035, 48.07549 ] } },
{ "type": "Feature", "properties": { "full_id": "n9461276142", "osm_id": "9461276142", "osm_type": "node", "historic": "castle", "castle_typ": null, "descriptio": null, "building_c": null, "old_name": null, "alt_name": null, "ruins": "yes", "wikipedia": "de:Burg Blankenberg (Neufelden)", "wikidata": "Q1011054", "wheelchair": null, "website": null, "name": "Burg Blankenberg", "castle_t_2": "defensive", "century": 11 }, "geometry": { "type": "Point", "coordinates": [ 14.0074561, 48.4843339 ] } },
{ "type": "Feature", "properties": { "full_id": "n9461276143", "osm_id": "9461276143", "osm_type": "node", "historic": "castle", "castle_typ": null, "descriptio": null, "building_c": null, "old_name": null, "alt_name": null, "ruins": "yes", "wikipedia": "de:Burg Luftenberg", "wikidata": "Q1013027", "wheelchair": null, "website": null, "name": "Burgruine Luftenberg", "castle_t_2": "defensive", "century": 12 }, "geometry": { "type": "Point", "coordinates": [ 14.41, 48.2698 ] } },
{ "type": "Feature", "properties": { "full_id": "n9461276144", "osm_id": "9461276144", "osm_type": "node", "historic": "castle", "castle_typ": null, "descriptio": null, "building_c": null, "old_name": null, "alt_name": null, "ruins": "yes", "wikipedia": "de:Burgruine Leonstein (Oberösterreich)", "wikidata": "Q14906509", "wheelchair": null, "website": null, "name": "Burgruine Leonstein", "castle_t_2": "defensive", "century": 12 }, "geometry": { "type": "Point", "coordinates": [ 14.2314, 47.9103 ] } },
{ "type": "Feature", "properties": { "full_id": "n9464577340", "osm_id": "9464577340", "osm_type": "node", "historic": "castle", "castle_typ": null, "descriptio": null, "building_c": null, "old_name": null, "alt_name": null, "ruins": "yes", "wikipedia": null, "wikidata": "Q37969412", "wheelchair": null, "website": null, "name": "Burgruine Niedertrixen", "castle_t_2": "defensive", "century": 13 }, "geometry": { "type": "Point", "coordinates": [ 14.6232222, 46.6811833 ] } },
{ "type": "Feature", "properties": { "full_id": "n9464577364", "osm_id": "9464577364", "osm_type": "node", "historic": "castle", "castle_typ": null, "descriptio": null, "building_c": null, "old_name": null, "alt_name": null, "ruins": "yes", "wikipedia": null, "wikidata": "Q105646931", "wheelchair": null, "website": null, "name": "Burgruine am Wauberg", "castle_t_2": "defensive", "century": 11 }, "geometry": { "type": "Point", "coordinates": [ 13.946898, 46.586432 ] } },
{ "type": "Feature", "properties": { "full_id": "n9464577365", "osm_id": "9464577365", "osm_type": "node", "historic": "castle", "castle_typ": null, "descriptio": null, "building_c": null, "old_name": null, "alt_name": "Burgruine Prießenegg", "ruins": "yes", "wikipedia": null, "wikidata": "Q99895932", "wheelchair": null, "website": null, "name": "Burgruine Malenthein", "castle_t_2": "defensive", "century": 14 }, "geometry": { "type": "Point", "coordinates": [ 13.3633861, 46.6229444 ] } },
{ "type": "Feature", "properties": { "full_id": "n9467287388", "osm_id": "9467287388", "osm_type": "node", "historic": "castle", "castle_typ": null, "descriptio": null, "building_c": null, "old_name": null, "alt_name": null, "ruins": "yes", "wikipedia": null, "wikidata": "Q37824371", "wheelchair": null, "website": null, "name": "Burgruine Reifnitz", "castle_t_2": "defensive", "century": 12 }, "geometry": { "type": "Point", "coordinates": [ 14.1633639, 46.6002306 ] } },
{ "type": "Feature", "properties": { "full_id": "n9472977238", "osm_id": "9472977238", "osm_type": "node", "historic": "castle", "castle_typ": null, "descriptio": null, "building_c": null, "old_name": null, "alt_name": null, "ruins": "yes", "wikipedia": "de:Burg Treffen (Kärnten)", "wikidata": "Q20656187", "wheelchair": null, "website": null, "name": "Burgruine Alt-Treffen", "castle_t_2": "defensive", "century": 11 }, "geometry": { "type": "Point", "coordinates": [ 13.842556, 46.6862221 ] } },
{ "type": "Feature", "properties": { "full_id": "n9472977240", "osm_id": "9472977240", "osm_type": "node", "historic": "castle", "castle_typ": null, "descriptio": null, "building_c": null, "old_name": null, "alt_name": null, "ruins": "yes", "wikipedia": "de:Ruine Aichelburg", "wikidata": "Q15843320", "wheelchair": null, "website": null, "name": "Burgruine Aichelburg", "castle_t_2": "defensive", "century": 13 }, "geometry": { "type": "Point", "coordinates": [ 13.5126694, 46.6107222 ] } },
{ "type": "Feature", "properties": { "full_id": "n9472977241", "osm_id": "9472977241", "osm_type": "node", "historic": "castle", "castle_typ": null, "descriptio": "Die Burg war eine langgestreckte Anlage aus dem 12. Jahrhundert. Deutlich erkennbar sind die Reste zweier Kapellen aus dem 12. bzw. 14. Jahrhundert. (''Dehio-Handbuch. Die Kunstdenkmäler Österreichs. Kärnten'')", "building_c": null, "old_name": null, "alt_name": "Marbauerschloss", "ruins": "yes", "wikipedia": "de:Burgruine Steuerberg", "wikidata": "Q1015533", "wheelchair": null, "website": null, "name": "Burgruine Steuerberg", "castle_t_2": "defensive", "century": 11 }, "geometry": { "type": "Point", "coordinates": [ 14.0757433, 46.7975605 ] } },
{ "type": "Feature", "properties": { "full_id": "n9472977242", "osm_id": "9472977242", "osm_type": "node", "historic": "castle", "castle_typ": null, "descriptio": "2002/2003 konnten hier archäologisch die Grundmauern der historisch bedeutenden hochmittelalterlichen Burg nachgewiesen werden [wikipedia]", "building_c": null, "old_name": null, "alt_name": null, "ruins": "yes", "wikipedia": null, "wikidata": "Q38174858", "wheelchair": null, "website": null, "name": "Burgruine Tevinia", "castle_t_2": "defensive", "century": 12 }, "geometry": { "type": "Point", "coordinates": [ 14.055888, 46.706097 ] } },
{ "type": "Feature", "properties": { "full_id": "n9578084365", "osm_id": "9578084365", "osm_type": "node", "historic": null, "castle_typ": null, "descriptio": null, "building_c": null, "old_name": null, "alt_name": null, "ruins": null, "wikipedia": null, "wikidata": null, "wheelchair": null, "website": null, "name": "Burg Grünwald", "castle_t_2": null, "century": 9 }, "geometry": { "type": "Point", "coordinates": [ 11.519351, 48.043439 ] } },
{ "type": "Feature", "properties": { "full_id": "n9825221049", "osm_id": "9825221049", "osm_type": "node", "historic": null, "castle_typ": null, "descriptio": null, "building_c": null, "old_name": null, "alt_name": null, "ruins": null, "wikipedia": null, "wikidata": null, "wheelchair": null, "website": null, "name": "Burgruine Lichtenhag", "castle_t_2": null, "century": 15 }, "geometry": { "type": "Point", "coordinates": [ 14.1754957, 48.3795325 ] } },
{ "type": "Feature", "properties": { "full_id": "n9957417946", "osm_id": "9957417946", "osm_type": "node", "historic": "castle", "castle_typ": null, "descriptio": null, "building_c": null, "old_name": null, "alt_name": null, "ruins": null, "wikipedia": "de:Burg Kelheim", "wikidata": "Q41310093", "wheelchair": null, "website": null, "name": "Burg Kelheim ", "castle_t_2": "defensive", "century": 11 }, "geometry": { "type": "Point", "coordinates": [ 11.8724484, 48.9148768 ] } },
{ "type": "Feature", "properties": { "full_id": "n10162852227", "osm_id": "10162852227", "osm_type": "node", "historic": null, "castle_typ": null, "descriptio": null, "building_c": null, "old_name": null, "alt_name": null, "ruins": null, "wikipedia": null, "wikidata": null, "wheelchair": null, "website": null, "name": "Burgruine Oberwallsee", "castle_t_2": null, "century": 14 }, "geometry": { "type": "Point", "coordinates": [ 14.0595272, 48.3681378 ] } },
{ "type": "Feature", "properties": { "full_id": "n10178695545", "osm_id": "10178695545", "osm_type": "node", "historic": null, "castle_typ": null, "descriptio": null, "building_c": null, "old_name": null, "alt_name": null, "ruins": null, "wikipedia": null, "wikidata": null, "wheelchair": null, "website": null, "name": "Ruine Steinschloss ", "castle_t_2": null, "century": 12 }, "geometry": { "type": "Point", "coordinates": [ 14.381825, 47.1288235 ] } },
{ "type": "Feature", "properties": { "full_id": "n10537590685", "osm_id": "10537590685", "osm_type": "node", "historic": "castle", "castle_typ": null, "descriptio": null, "building_c": null, "old_name": null, "alt_name": "Böckstein;Alt-Böckstein", "ruins": "yes", "wikipedia": "de:Burgruine Pöckstein", "wikidata": "Q54807434", "wheelchair": "no", "website": null, "name": "Burgruine Pöckstein", "castle_t_2": "defensive", "century": 12 }, "geometry": { "type": "Point", "coordinates": [ 14.4446055, 46.8924605 ] } },
{ "type": "Feature", "properties": { "full_id": "n10592041401", "osm_id": "10592041401", "osm_type": "node", "historic": null, "castle_typ": null, "descriptio": null, "building_c": null, "old_name": null, "alt_name": null, "ruins": null, "wikipedia": null, "wikidata": null, "wheelchair": null, "website": null, "name": "Festung Kniepass", "castle_t_2": null, "century": 14 }, "geometry": { "type": "Point", "coordinates": [ 12.7261306, 47.6346854 ] } },
{ "type": "Feature", "properties": { "full_id": "n10834499073", "osm_id": "10834499073", "osm_type": "node", "historic": null, "castle_typ": null, "descriptio": null, "building_c": null, "old_name": null, "alt_name": null, "ruins": null, "wikipedia": null, "wikidata": null, "wheelchair": null, "website": null, "name": "Trostburg", "castle_t_2": null, "century": 12 }, "geometry": { "type": "Point", "coordinates": [ 11.5345717, 46.5951644 ] } },
{ "type": "Feature", "properties": { "full_id": "n11096400766", "osm_id": "11096400766", "osm_type": "node", "historic": "castle", "castle_typ": null, "descriptio": null, "building_c": null, "old_name": null, "alt_name": null, "ruins": null, "wikipedia": "de:Burg Geiersberg", "wikidata": "Q1011918", "wheelchair": null, "website": null, "name": "Burg Geiersberg", "castle_t_2": null, "century": 12 }, "geometry": { "type": "Point", "coordinates": [ 14.3989429, 46.9561045 ] } },
{ "type": "Feature", "properties": { "full_id": "n11114656892", "osm_id": "11114656892", "osm_type": "node", "historic": "castle", "castle_typ": null, "descriptio": null, "building_c": null, "old_name": null, "alt_name": null, "ruins": "yes", "wikipedia": "de:Burgruine Falkenstein (an der Ranna)", "wikidata": "Q1015282", "wheelchair": null, "website": null, "name": "Burg Falkenstein", "castle_t_2": "defensive", "century": 13 }, "geometry": { "type": "Point", "coordinates": [ 13.7825922, 48.4939473 ] } },
{ "type": "Feature", "properties": { "full_id": "n11135190424", "osm_id": "11135190424", "osm_type": "node", "historic": "castle", "castle_typ": null, "descriptio": null, "building_c": null, "old_name": null, "alt_name": null, "ruins": "yes", "wikipedia": "de:Burg Randeck (Landkreis Kelheim)", "wikidata": "Q1013577", "wheelchair": null, "website": null, "name": "Burg Randeck", "castle_t_2": "defensive", "century": 11 }, "geometry": { "type": "Point", "coordinates": [ 11.7895988, 48.9378014 ] } },
{ "type": "Feature", "properties": { "full_id": "n11349691708", "osm_id": "11349691708", "osm_type": "node", "historic": null, "castle_typ": null, "descriptio": null, "building_c": null, "old_name": null, "alt_name": null, "ruins": null, "wikipedia": null, "wikidata": null, "wheelchair": null, "website": null, "name": "Burgruine Natternberg", "castle_t_2": null, "century": 12 }, "geometry": { "type": "Point", "coordinates": [ 12.9120237, 48.8250911 ] } },
{ "type": "Feature", "properties": { "full_id": "n11401780977", "osm_id": "11401780977", "osm_type": "node", "historic": "castle", "castle_typ": null, "descriptio": null, "building_c": null, "old_name": null, "alt_name": null, "ruins": "yes", "wikipedia": "de:Burg- und Schlossruine Wullross", "wikidata": "Q15108178", "wheelchair": null, "website": null, "name": "Burgruine Wullroß", "castle_t_2": "defensive", "century": 12 }, "geometry": { "type": "Point", "coordinates": [ 14.2119271, 46.8140666 ] } },
{ "type": "Feature", "properties": { "full_id": "n11532636278", "osm_id": "11532636278", "osm_type": "node", "historic": "castle", "castle_typ": null, "descriptio": null, "building_c": null, "old_name": null, "alt_name": "Burgruine Neurettenberg", "ruins": "yes", "wikipedia": "de:Burgruine Neu-Rettenberg", "wikidata": "Q16054783", "wheelchair": null, "website": null, "name": "Burgruine Neu-Rettenberg", "castle_t_2": "defensive", "century": 15 }, "geometry": { "type": "Point", "coordinates": [ 11.645096, 47.2939517 ] } },
{ "type": "Feature", "properties": { "full_id": "n11629663171", "osm_id": "11629663171", "osm_type": "node", "historic": "castle", "castle_typ": null, "descriptio": null, "building_c": "unrecognizable_remains", "old_name": null, "alt_name": null, "ruins": null, "wikipedia": "de:Burgstall Stampfegg", "wikidata": "Q15790451", "wheelchair": null, "website": null, "name": "Burgstall Stampfegg", "castle_t_2": "defensive", "century": 11 }, "geometry": { "type": "Point", "coordinates": [ 14.6475805, 48.4488632 ] } },
{ "type": "Feature", "properties": { "full_id": "n11664802471", "osm_id": "11664802471", "osm_type": "node", "historic": "castle", "castle_typ": null, "descriptio": null, "building_c": null, "old_name": null, "alt_name": null, "ruins": "yes", "wikipedia": "de:Burg Neuaist", "wikidata": null, "wheelchair": null, "website": null, "name": "Burg Neuaist", "castle_t_2": null, "century": 12 }, "geometry": { "type": "Point", "coordinates": [ 14.5301277, 48.3342099 ] } },
{ "type": "Feature", "properties": { "full_id": "n11810081672", "osm_id": "11810081672", "osm_type": "node", "historic": "castle", "castle_typ": null, "descriptio": null, "building_c": null, "old_name": null, "alt_name": null, "ruins": null, "wikipedia": "de:Burg Kipfenberg", "wikidata": "Q1012657", "wheelchair": "no", "website": null, "name": "Burg Kipfenberg", "castle_t_2": "defensive", "century": 12 }, "geometry": { "type": "Point", "coordinates": [ 11.3968568, 48.9488055 ] } }
]
}
